{
  "type": "FeatureCollection",
  "features": [
    {
      "type": "Feature",
      "properties": {
        "name": "TOVKA"
      },
      "geometry": {
        "type": "Point",
        "coordinates": [
          16.92638888888889,
          48.27027777777778
        ]
      }
    },
    {
      "type": "Feature",
      "properties": {
        "name": "MAREG"
      },
      "geometry": {
        "type": "Point",
        "coordinates": [
          16.969166666666666,
          48.190555555555555
        ]
      }
    },
    {
      "type": "Feature",
      "properties": {
        "name": "ETIPA"
      },
      "geometry": {
        "type": "Point",
        "coordinates": [
          17.554444444444446,
          48.712500000000006
        ]
      }
    },
    {
      "type": "Feature",
      "properties": {
        "name": "KOPAT"
      },
      "geometry": {
        "type": "Point",
        "coordinates": [
          18.654444444444444,
          49.10638888888889
        ]
      }
    },
    {
      "type": "Feature",
      "properties": {
        "name": "XOMBA"
      },
      "geometry": {
        "type": "Point",
        "coordinates": [
          18.061944444444446,
          47.75666666666667
        ]
      }
    },
    {
      "type": "Feature",
      "properties": {
        "name": "ALAMU"
      },
      "geometry": {
        "type": "Point",
        "coordinates": [
          18.33,
          47.73694444444445
        ]
      }
    },
    {
      "type": "Feature",
      "properties": {
        "name": "BALAP"
      },
      "geometry": {
        "type": "Point",
        "coordinates": [
          19.25,
          48.06805555555556
        ]
      }
    },
    {
      "type": "Feature",
      "properties": {
        "name": "LITKU"
      },
      "geometry": {
        "type": "Point",
        "coordinates": [
          19.59861111111111,
          48.230555555555554
        ]
      }
    },
    {
      "type": "Feature",
      "properties": {
        "name": "DEMOP"
      },
      "geometry": {
        "type": "Point",
        "coordinates": [
          20.056944444444444,
          48.17472222222222
        ]
      }
    },
    {
      "type": "Feature",
      "properties": {
        "name": "PITOK"
      },
      "geometry": {
        "type": "Point",
        "coordinates": [
          20.371666666666666,
          48.32472222222223
        ]
      }
    },
    {
      "type": "Feature",
      "properties": {
        "name": "KEKED"
      },
      "geometry": {
        "type": "Point",
        "coordinates": [
          21.29138888888889,
          48.52305555555555
        ]
      }
    },
    {
      "type": "Feature",
      "properties": {
        "name": "KENIN"
      },
      "geometry": {
        "type": "Point",
        "coordinates": [
          21.927222222222223,
          48.361666666666665
        ]
      }
    },
    {
      "type": "Feature",
      "properties": {
        "name": "ROBTU"
      },
      "geometry": {
        "type": "Point",
        "coordinates": [
          21.815,
          48.89416666666666
        ]
      }
    },
    {
      "type": "Feature",
      "properties": {
        "name": "KSC"
      },
      "geometry": {
        "type": "Point",
        "coordinates": [
          21.248167,
          48.683089
        ]
      }
    },
    {
      "type": "Feature",
      "properties": {
        "name": "NIT"
      },
      "geometry": {
        "type": "Point",
        "coordinates": [
          18.050639,
          48.290436
        ]
      }
    },
    {
      "type": "Feature",
      "properties": {
        "name": "OKR"
      },
      "geometry": {
        "type": "Point",
        "coordinates": [
          17.3719,
          48.2452
        ]
      }
    }
  ]
}